[
  {
    "name": "Andrew Kerr Care Community",
    "link": "https://www.unitingagewell.org/our-services/residential-care/andrew-kerr-care-community",
    "category": "residential-care",
    "address": "67 Tanti Ave, Mornington VIC 3931",
    "phone": "(03) 5975 6334",
    "bookATour": "title=Andrew Kerr Care Community&type=true",
    "other_offices": [],
    "area": false,
    "location": { "lat": -38.2196028, "lng": 145.0451602 }
  },
  {
    "name": "Box Hill Community",
    "link": "https://www.unitingagewell.org/our-services/residential-care/box-hill-community",
    "category": "residential-care",
    "address": "75 Thames Street, Box Hill VIC 3128",
    "phone": "(03) 9843 2200",
    "bookATour": "title=Box Hill Community&type=true",
    "other_offices": [],
    "area": false,
    "location": { "lat": -37.813795, "lng": 145.12312900000006 }
  },
  {
    "name": "Camberwell Community, Condare Court",
    "link": "https://www.unitingagewell.org/our-services/residential-care/camberwell-community-condare-court",
    "category": "residential-care",
    "address": "8 Joffre Street, Camberwell VIC 3124",
    "phone": "(03) 9809 1558",
    "bookATour": "title=Camberwell Community, Condare Court&type=true",
    "other_offices": [
      { "label": "Melbourne Office", "phone": "03 9795-6704", "address": null }
    ],
    "area": false,
    "location": { "lat": -37.8430264, "lng": 145.09190309999997 }
  },
  {
    "name": "Hawthorn Community",
    "link": "https://www.unitingagewell.org/our-services/residential-care/hawthorn-community",
    "category": "residential-care",
    "address": "27-29 Wattle Road, Hawthorn VIC 3122",
    "phone": "(03) 8840 2700",
    "bookATour": "title=Hawthorn Community&type=true",
    "other_offices": [],
    "area": false,
    "location": { "lat": -37.8246135, "lng": 145.02896320000002 }
  },
  {
    "name": "Kalkee Community, Murray",
    "link": "https://www.unitingagewell.org/our-services/residential-care/kalkee-community-murray",
    "category": "residential-care",
    "address": "9 Spring Street, Belmont VIC 3216",
    "phone": "(03) 5243 9566",
    "bookATour": "title=Kalkee Community, Murray&type=true",
    "other_offices": [],
    "area": false,
    "location": { "lat": -38.18042579999999, "lng": 144.34606770000005 }
  },
  {
    "name": "Kalkee Community, Nangatta",
    "link": "https://www.unitingagewell.org/our-services/residential-care/kalkee-community-nangatta",
    "category": "residential-care",
    "address": "206 High Street, Belmont VIC 3216",
    "phone": "(03) 5243 6688",
    "bookATour": "title=Kalkee Community, Nangatta&type=true",
    "other_offices": [],
    "area": false,
    "location": { "lat": -38.1769174, "lng": 144.3401609 }
  },
  {
    "name": "Kings Meadows Community, Aldersgate",
    "link": "https://www.unitingagewell.org/our-services/residential-care/kings-meadows-community",
    "category": "residential-care",
    "address": "12-22 Hobart Road, Kings Meadows TAS 7249",
    "phone": "(03) 6341 1400",
    "bookATour": "title=Kings Meadows Community, Aldersgate&type=true",
    "other_offices": [],
    "area": false,
    "location": { "lat": -41.4592442, "lng": 147.15526840000007 }
  },
  {
    "name": "Kingsville Community",
    "link": "https://www.unitingagewell.org/our-services/residential-care/kingsville-community",
    "category": "residential-care",
    "address": "319 Geelong Road, Kingsville VIC 3012",
    "phone": "(03) 9680 0400",
    "bookATour": "title=Kingsville Community&type=true",
    "other_offices": [],
    "area": false,
    "location": { "lat": -37.806936, "lng": 144.87795200000005 }
  },
  {
    "name": "Latrobe Community, Strathdevon",
    "link": "https://www.unitingagewell.org/our-services/residential-care/latrobe-community-strathdevon",
    "category": "residential-care",
    "address": "37 Moriarty Road, Latrobe TAS 7307",
    "phone": "(03) 7038 0400",
    "bookATour": "title=Latrobe Community, Strathdevon&type=true",
    "other_offices": [],
    "area": false,
    "location": { "lat": -41.2317911, "lng": 146.4222893 }
  },
  {
    "name": "Manor Lakes Community",
    "link": "https://www.unitingagewell.org/our-services/residential-care/manor-lakes-community",
    "category": "residential-care",
    "address": "15 Buffalo Crescent, Wyndham Vale VIC 3024",
    "phone": "(03) 9742 7201",
    "bookATour": "title=Manor Lakes Community&type=true",
    "other_offices": [],
    "area": false,
    "location": { "lat": -37.87350600000001, "lng": 144.60623499999997 }
  },
  {
    "name": "Mornington Community, Lillian Martin",
    "link": "https://www.unitingagewell.org/our-services/residential-care/mornington-community-lillian-martin",
    "category": "residential-care",
    "address": "281 Cambridge Road, Mornington TAS 7018",
    "phone": "(03) 6282 1111",
    "bookATour": "title=Mornington Community, Lillian Martin&type=true",
    "other_offices": [],
    "area": false,
    "location": { "lat": -42.8589659, "lng": 147.38923929999999 }
  },
  {
    "name": "Newnham Community, Aldersgate Village",
    "link": "https://www.unitingagewell.org/our-services/residential-care/newnham-community-aldersgate-village",
    "category": "residential-care",
    "address": "3 Tallentire Road, Newnham TAS 7248",
    "phone": "(03) 6323 8200",
    "bookATour": "title=Newnham Community, Aldersgate Village&type=true",
    "other_offices": [],
    "area": false,
    "location": { "lat": -41.3803429, "lng": 147.12472490000005 }
  },
  {
    "name": "Noble Park Community",
    "link": "https://www.unitingagewell.org/our-services/residential-care/noble-park-community",
    "category": "residential-care",
    "address": "1312 Heatherton Road,Noble Park VIC 3174",
    "phone": "(03) 9554 0700",
    "bookATour": "title=Noble Park Community&type=true",
    "other_offices": [],
    "area": false,
    "location": { "lat": -37.96723310000001, "lng": 145.19057440000006 }
  },
  {
    "name": "Preston Community",
    "link": "https://www.unitingagewell.org/our-services/residential-care/preston-community",
    "category": "residential-care",
    "address": "78 Bruce Street, Preston VIC 3072",
    "phone": "(03) 9658 5400",
    "bookATour": "title=Preston Community&type=true",
    "other_offices": [],
    "area": false,
    "location": { "lat": -37.741354, "lng": 144.99240199999997 }
  },
  {
    "name": "Queenborough Rise Community",
    "link": "https://www.unitingagewell.org/our-services/residential-care/queenborough-rise-community",
    "category": "residential-care",
    "address": "3 Peel Street, Sandy Bay TAS 7005",
    "phone": "(03) 6283 4000",
    "bookATour": "title=Queenborough Rise Community&type=true",
    "other_offices": [],
    "area": false,
    "location": { "lat": -42.9063016, "lng": 147.33109509999997 }
  },
  {
    "name": "Rosetta Community, Strathaven",
    "link": "https://www.unitingagewell.org/our-services/residential-care/rosetta-community-strathaven",
    "category": "residential-care",
    "address": "9 Strathaven Drive, Rosetta TAS 7010",
    "phone": "(03) 6208 3208",
    "bookATour": "title=Rosetta Community, Strathaven&type=true",
    "other_offices": [],
    "area": false,
    "location": { "lat": -42.81618270000001, "lng": 147.25903600000004 }
  },
  {
    "name": "Rosetta Community, Strathglen",
    "link": "https://www.unitingagewell.org/our-services/residential-care/rosetta-community-strathglen",
    "category": "residential-care",
    "address": "2b Chardonnay Drive,Berriedale TAS 7011",
    "phone": "(03) 6249 8766",
    "bookATour": "title=Rosetta Community, Strathglen&type=true",
    "other_offices": [],
    "area": false,
    "location": { "lat": -42.813582, "lng": 147.25229149999996 }
  },
  {
    "name": "Sorell Community, Ningana",
    "link": "https://www.unitingagewell.org/our-services/residential-care/sorell-community-ningana",
    "category": "residential-care",
    "address": "1 The Circle,Sorell TAS 7172",
    "phone": "(03) 6269 1000",
    "bookATour": "title=Sorell Community, Ningana&type=true",
    "other_offices": [],
    "area": false,
    "location": { "lat": -42.78522419999999, "lng": 147.55666969999993 }
  },
  {
    "name": "Strathdon Community",
    "link": "https://www.unitingagewell.org/our-services/residential-care/strathdon-community",
    "category": "residential-care",
    "address": "17 Jolimont Road, Forest Hill VIC 3131",
    "phone": "(03) 9845 3111",
    "bookATour": "title=Strathdon Community&type=true",
    "other_offices": [],
    "area": false,
    "location": { "lat": -37.84296700000001, "lng": 145.17306699999995 }
  },
  {
    "name": "Strath-Haven Community",
    "link": "https://www.unitingagewell.org/our-services/residential-care/strath-haven-community",
    "category": "residential-care",
    "address": "131-149 Condon Street,Bendigo VIC 3550",
    "phone": "(03) 5434 3000",
    "bookATour": "title=Strath-Haven Community&type=true",
    "other_offices": [],
    "area": false,
    "location": { "lat": -36.77365520000001, "lng": 144.3056977 }
  },
  {
    "name": "Andrew Kerr Home Care",
    "link": "https://www.unitingagewell.org/our-services/home-care/andrew-kerr-home-care",
    "category": "home-care",
    "address": "67-69 Tanti Avenue, Mornington VIC 3931",
    "phone": "(03) 5975 6334",
    "bookATour": null,
    "other_offices": [],
    "colour": "",
    "area": "southern-victoria",
    "location": { "lat": -38.2196028, "lng": 145.0451602 },
    "info": ""
  },
  {
    "name": "Barwon Home Care",
    "link": "https://www.unitingagewell.org/our-services/home-care/barwon-home-care",
    "category": "home-care",
    "address": "95 Francis Street, Belmont VIC 3216",
    "phone": "(03) 4249 0000",
    "bookATour": null,
    "other_offices": [],
    "colour": "",
    "area": "barwon-victoria",
    "location": { "lat": -38.1803747, "lng": 144.34825839999996 },
    "info": ""
  },
  {
    "name": "Gippsland Home Care",
    "link": "https://www.unitingagewell.org/our-services/home-care/gippsland-home-care",
    "category": "home-care",
    "address": "49 McCulloch St, Bairnsdale VIC 3875",
    "phone": "(03) 5152 9699",
    "bookATour": null,
    "other_offices": [],
    "colour": "",
    "area": "gippsland-victoria",
    "location": { "lat": -37.8283569, "lng": 147.62490019999996 },
    "info": ""
  },
  {
    "name": "Grampians Home Care",
    "link": "https://www.unitingagewell.org/our-services/home-care/grampians-home-care",
    "category": "home-care",
    "address": "19 Albert Street\n",
    "phone": "(03) 5326 0700",
    "bookATour": null,
    "other_offices": [],
    "colour": "",
    "area": "ballarat-ararat-pyrenees",
    "location": { "lat": -37.5593492, "lng": 143.877331 },
    "info": ""
  },
  {
    "name": "Hume Home Care",
    "link": "https://www.unitingagewell.org/our-services/home-care/hume-home-care",
    "category": "home-care",
    "address": "12 Rowan Street, Wangaratta, VIC, 3677",
    "phone": "(03) 8527 5880",
    "bookATour": null,
    "other_offices": [],
    "colour": "",
    "area": "hume",
    "location": { "lat": -36.3528144, "lng": 146.3242036 },
    "info": ""
  },
  {
    "name": "Loddon Mallee North Home Care",
    "link": "https://www.unitingagewell.org/our-services/home-care/loddon-mallee-north-home-care",
    "category": "home-care",
    "address": "424 San Mateo Ave\nMildura VIC 3500",
    "phone": "(03) 4026 7000",
    "bookATour": null,
    "other_offices": [
      {
        "label": "Loddon Mallee North Home Care, Swan Hill Office",
        "phone": "(03) 5048 2400",
        "address": "152 Campbell Street, Swan Hill, VIC 3585"
      },
      {
        "label": "Loddon Mallee North Home Care, Kerang Office",
        "phone": "(03) 5048 2400",
        "address": "76 Fitzroy St, Kerang VIC 3579"
      }
    ],
    "colour": "",
    "area": "loddon-mallee-north-victoria",
    "location": { "lat": -34.2093233, "lng": 142.1438363 },
    "info": ""
  },
  {
    "name": "Loddon Mallee South Home Care",
    "link": "https://www.unitingagewell.org/our-services/home-care/loddon-mallee-south-home-care",
    "category": "home-care",
    "address": "Shop 13 / 172 McIvor Highway, Strathdale VIC 3550",
    "phone": "(03) 5454 2100",
    "bookATour": null,
    "other_offices": [
      {
        "label": "Loddon Mallee South Home Care, Echuca Office",
        "phone": "(03) 8527 5800",
        "address": "Shop 2, 188 Annesley Street, Echuca VIC 3564"
      },
      {
        "label": "Loddon Mallee South Home Care, Inglewood Office",
        "phone": "(03) 5454 2100",
        "address": "6 Thompson Street, Inglewood VIC 3517"
      }
    ],
    "colour": "",
    "area": "loddon-mallee-south-victoria",
    "location": { "lat": -36.7594709, "lng": 144.31034880000004 },
    "info": ""
  },
  {
    "name": "Melbourne East Metro Home Care",
    "link": "https://www.unitingagewell.org/our-services/home-care/eastern-metro-home-care",
    "category": "home-care",
    "address": "378 Burwood Highway\nBurwood East, 3151",
    "phone": "(03) 8845 1800",
    "bookATour": null,
    "other_offices": [],
    "colour": "",
    "area": "eastern-victoria",
    "location": { "lat": -37.8551882, "lng": 145.1673368 },
    "info": ""
  },
  {
    "name": "Melbourne South Metro Home Care",
    "link": "https://www.unitingagewell.org/our-services/home-care/southern-metro-home-care",
    "category": "home-care",
    "address": "12 Wheeler Street,\nBerwick, VIC 3806",
    "phone": "(03) 9089 1900",
    "bookATour": null,
    "other_offices": [],
    "colour": "",
    "area": "southern-victoria",
    "location": { "lat": -37.8992676, "lng": 145.09277129999998 },
    "info": ""
  },
  {
    "name": "Melbourne South East Home Care - Casey",
    "link": "https://www.unitingagewell.org/our-services/home-care/casey",
    "category": "home-care",
    "address": "1412A South Gippsland Highway, \nCranbourne VIC 3977",
    "phone": "(03) 5911 5700",
    "bookATour": null,
    "other_offices": [],
    "colour": "",
    "area": "southern-victoria",
    "location": { "lat": -38.1138762, "lng": 145.2826208 },
    "info": ""
  },
  {
    "name": "Melbourne West Metro Home Care",
    "link": "https://www.unitingagewell.org/our-services/home-care/west-metro-home-care",
    "category": "home-care",
    "address": "319 Geelong Road, Kingsville VIC 3012",
    "phone": "(03) 9111 9593",
    "bookATour": null,
    "other_offices": [],
    "colour": "",
    "area": "west-metro-victoria",
    "location": { "lat": -37.80740299999999, "lng": 144.8770799 },
    "info": ""
  },
  {
    "name": "Tasmania North Home Care",
    "link": "https://www.unitingagewell.org/our-services/home-care/northern-tasmania-home-care",
    "category": "home-care",
    "address": "5 Normanstone Road, South Launceston TAS 7249",
    "phone": "(03) 6715 7000",
    "bookATour": null,
    "other_offices": [],
    "colour": "",
    "area": "northern-tasmania",
    "location": { "lat": -41.3803429, "lng": 147.12472490000005 },
    "info": ""
  },
  {
    "name": "Tasmania South Home Care",
    "link": "https://www.unitingagewell.org/our-services/home-care/southern-tasmania-home-care",
    "category": "home-care",
    "address": "\"The Cottage\"283 Cambridge Road Mornington TAS 7018",
    "phone": "(03) 6289 8800",
    "bookATour": null,
    "other_offices": [],
    "colour": "",
    "area": "southern-tasmania",
    "location": { "lat": -42.8579936, "lng": 147.3902616 },
    "info": ""
  },
  {
    "name": "Aldersgate Village",
    "link": "https://www.unitingagewell.org/our-services/independent-retirement-living/aldersgate-village",
    "category": "independent-retirement-living",
    "address": "3 Tallentire Road, Newnham TAS 7248",
    "phone": "1300 783 435",
    "bookATour": "title=Aldersgate Village&type=true",
    "other_offices": [],
    "area": false,
    "location": { "lat": -41.3803429, "lng": 147.12472490000005 }
  },
  {
    "name": "Condare Court",
    "link": "https://www.unitingagewell.org/our-services/independent-retirement-living/condare-court",
    "category": "independent-retirement-living",
    "address": "8 Joffre Street, Camberwell VIC 3124",
    "phone": "1300 783 435",
    "bookATour": "title=Condare Court&type=true",
    "other_offices": [],
    "area": false,
    "location": { "lat": -37.843584, "lng": 145.09101250000003 }
  },
  {
    "name": "Melbourne North Metro Home Care",
    "link": "https://www.unitingagewell.org/our-services/home-care/north-metro-home-care",
    "category": "home-care",
    "address": "9 Langwells Pde, \nNorthcote 3070",
    "phone": "(03) 9658 5696",
    "bookATour": null,
    "other_offices": [],
    "colour": "",
    "area": "north-metro-victoria",
    "location": { "lat": -37.76723550000001, "lng": 145.000213 },
    "info": ""
  },
  {
    "name": "Tasmania North West Home Care",
    "link": "https://www.unitingagewell.org/our-services/home-care/north-western-tasmania-home-care",
    "category": "home-care",
    "address": "8 Hamilton Street, Latrobe TAS 7307",
    "phone": "(03) 6715 7000",
    "bookATour": null,
    "other_offices": [],
    "colour": "",
    "area": "north-western-tasmania",
    "location": { "lat": -41.23623859999999, "lng": 146.41199789999996 },
    "info": ""
  },
  {
    "name": "Amarco Apartments",
    "link": "https://www.unitingagewell.org/our-services/independent-retirement-living/amarco-apartments",
    "category": "independent-retirement-living",
    "address": "9 Edgar Street, Kingsville VIC 3012",
    "phone": "1300 783 435",
    "bookATour": "title=Amarco Apartments&type=true",
    "other_offices": [],
    "area": false,
    "location": { "lat": -37.8080444, "lng": 144.87744210000005 }
  },
  {
    "name": "Costa Court Serviced Apartments",
    "link": "https://www.unitingagewell.org/our-services/independent-retirement-living/costa-court-serviced-apartments",
    "category": "independent-retirement-living",
    "address": "48 Settlement Road, Belmont VIC 3216",
    "phone": "1300 783 435",
    "bookATour": "title=Costa Court Serviced Apartments&type=true",
    "other_offices": [],
    "area": false,
    "location": { "lat": -38.18000850000001, "lng": 144.35037579999994 }
  },
  {
    "name": "Cottage Gardens",
    "link": "https://www.unitingagewell.org/our-services/independent-retirement-living/cottage-gardens",
    "category": "independent-retirement-living",
    "address": "281 Cambridge Road, Mornington TAS 7018",
    "phone": "1300 783 435",
    "bookATour": "title=Cottage Gardens&type=true",
    "other_offices": [],
    "area": false,
    "location": { "lat": -42.8593886, "lng": 147.38940960000002 }
  },
  {
    "name": "Denison Court",
    "link": "https://www.unitingagewell.org/our-services/independent-retirement-living/denison-court",
    "category": "independent-retirement-living",
    "address": "59 Goulburn Street, George Town TAS 7253",
    "phone": "1300 783 435",
    "bookATour": "title=Denison Court&type=true",
    "other_offices": [],
    "area": false,
    "location": { "lat": -41.1046673, "lng": 146.82491019999998 }
  },
  {
    "name": "Glenrowan Village",
    "link": "https://www.unitingagewell.org/our-services/independent-retirement-living/glenrowan-village",
    "category": "independent-retirement-living",
    "address": "64-68 Drummond Street, Perth TAS 7300",
    "phone": "1300 783 435",
    "bookATour": "title=Glenrowan Village&type=true",
    "other_offices": [],
    "area": false,
    "location": { "lat": -41.5760833, "lng": 147.16751709999994 }
  },
  {
    "name": "Kalkee Independent Living Units",
    "link": "https://www.unitingagewell.org/our-services/independent-retirement-living/kalkee-ilus",
    "category": "independent-retirement-living",
    "address": "95 Francis St, Belmont VIC 3216",
    "phone": "1300 783 435",
    "bookATour": "title=Kalkee Independent Living Units&type=true",
    "other_offices": [],
    "area": false,
    "location": { "lat": -38.1805255, "lng": 144.34823110000002 }
  },
  {
    "name": "Kingston",
    "link": "https://www.unitingagewell.org/our-services/independent-retirement-living/kingston",
    "category": "independent-retirement-living",
    "address": "57-59 Channel Highway, Kingston TAS 7050",
    "phone": "1300 783 435",
    "bookATour": "title=Kingston&type=true",
    "other_offices": [],
    "area": false,
    "location": { "lat": -42.97612669999999, "lng": 147.30632349999996 }
  },
  {
    "name": "Manningtree Hawthorn",
    "link": "https://www.unitingagewell.org/our-services/independent-retirement-living/manningtree-hawthorn",
    "category": "independent-retirement-living",
    "address": "20-26 Manningtree Road, Hawthorn VIC 3122",
    "phone": "1300 783 435",
    "bookATour": "title=Manningtree Hawthorn&type=true",
    "other_offices": [],
    "area": false,
    "location": { "lat": -37.82324569999999, "lng": 145.0285447 }
  },
  {
    "name": "Montrose",
    "link": "https://www.unitingagewell.org/our-services/independent-retirement-living/montrose",
    "category": "independent-retirement-living",
    "address": "19 Montrose Road, Montrose TAS 7010",
    "phone": "1300 783 435",
    "bookATour": "title=Montrose&type=true",
    "other_offices": [],
    "area": false,
    "location": { "lat": -42.82716779999999, "lng": 147.26350730000001 }
  },
  {
    "name": "Nangare",
    "link": "https://www.unitingagewell.org/our-services/independent-retirement-living/nangare",
    "category": "independent-retirement-living",
    "address": "1 Ireland St, Burwood VIC 3125",
    "phone": "1300 783 435",
    "bookATour": "title=Nangare&type=true",
    "other_offices": [],
    "area": false,
    "location": { "lat": -37.8502957, "lng": 145.10732069999995 }
  },
  {
    "name": "New Town",
    "link": "https://www.unitingagewell.org/our-services/independent-retirement-living/new-town",
    "category": "independent-retirement-living",
    "address": "51 Cross Street, New Town TAS 7008",
    "phone": "1300 783 435",
    "bookATour": "title=New Town&type=true",
    "other_offices": [],
    "area": false,
    "location": { "lat": -42.8563674, "lng": 147.30774329999997 }
  },
  {
    "name": "Ningana",
    "link": "https://www.unitingagewell.org/our-services/independent-retirement-living/ningana",
    "category": "independent-retirement-living",
    "address": "1 The Circle,Sorell TAS 7172",
    "phone": "1300 783 435",
    "bookATour": "title=Ningana&type=true",
    "other_offices": [],
    "area": false,
    "location": { "lat": -42.78522419999999, "lng": 147.55666969999993 }
  },
  {
    "name": "Queenborough Rise",
    "link": "https://www.unitingagewell.org/our-services/independent-retirement-living/queenborough-rise",
    "category": "independent-retirement-living",
    "address": "3 Peel Street, Sandy Bay TAS 7005",
    "phone": "1300 783 435",
    "bookATour": "title=Queenborough Rise&type=true",
    "other_offices": [],
    "area": false,
    "location": { "lat": -42.9063016, "lng": 147.33109509999997 }
  },
  {
    "name": "Strathdevon",
    "link": "https://www.unitingagewell.org/our-services/independent-retirement-living/strathdevon",
    "category": "independent-retirement-living",
    "address": "50 Percival St, Latrobe TAS 7307",
    "phone": "1300 783 435",
    "bookATour": "title=Strathdevon&type=true",
    "other_offices": [],
    "area": false,
    "location": { "lat": -41.2308357, "lng": 146.42433370000003 }
  },
  {
    "name": "Strathdon",
    "link": "https://www.unitingagewell.org/our-services/independent-retirement-living/strathdon",
    "category": "independent-retirement-living",
    "address": "17 Jolimont Road, Forest Hill VIC 3131",
    "phone": "1300 783 435",
    "bookATour": "title=Strathdon&type=true",
    "other_offices": [],
    "area": false,
    "location": { "lat": -37.84296700000001, "lng": 145.17306699999995 }
  },
  {
    "name": "Strathglen Mews",
    "link": "https://www.unitingagewell.org/our-services/independent-retirement-living/strathglen-mews",
    "category": "independent-retirement-living",
    "address": "13 Chardonnay Drive, Berriedale TAS 7011",
    "phone": "1300 783 435",
    "bookATour": "title=Strathglen Mews&type=true",
    "other_offices": [],
    "area": false,
    "location": { "lat": -42.813582, "lng": 147.25229149999996 }
  },
  {
    "name": "Valkstone",
    "link": "https://www.unitingagewell.org/our-services/independent-retirement-living/valkstone",
    "category": "independent-retirement-living",
    "address": "576 Centre Road, Bentleigh VIC 3204",
    "phone": "1300 783 435",
    "bookATour": "title=Valkstone&type=true",
    "other_offices": [],
    "area": false,
    "location": { "lat": -37.919688, "lng": 145.04645400000004 }
  },
  {
    "name": "Wesley Court",
    "link": "https://www.unitingagewell.org/our-services/independent-retirement-living/wesley-court",
    "category": "independent-retirement-living",
    "address": "11 Normanstone Road, South Launceston TAS 7249",
    "phone": "1300 783 435",
    "bookATour": "title=Wesley Court&type=true",
    "other_offices": [],
    "area": false,
    "location": { "lat": -41.4598055, "lng": 147.15268219999996 }
  },
  {
    "name": "White Hills Haven",
    "link": "https://www.unitingagewell.org/our-services/independent-retirement-living/white-hills-haven",
    "category": "independent-retirement-living",
    "address": "506-510 Napier St, White Hills VIC 3550",
    "phone": "1300 783 435",
    "bookATour": "title=White Hills Haven&type=true",
    "other_offices": [],
    "area": false,
    "location": { "lat": -36.7292521, "lng": 144.30697450000002 }
  },
  {
    "name": "Yernga",
    "link": "https://www.unitingagewell.org/our-services/independent-retirement-living/yernga",
    "category": "independent-retirement-living",
    "address": "32-42 Larch Crescent, Mt Waverley VIC 3149",
    "phone": "1300 783 435",
    "bookATour": "title=Yernga&type=true",
    "other_offices": [],
    "area": false,
    "location": { "lat": -37.8673336, "lng": 145.14760030000002 }
  },
  {
    "name": "North West and East Metro Short-term Restorative Care",
    "link": "https://www.unitingagewell.org/our-services/short-term-restorative-care/eastern-metro-short-term-restorative-care",
    "category": "short-term-restorative-care",
    "address": "9 Langwells Pde, Northcote 3070",
    "phone": "(03) 9658 5609",
    "bookATour": null,
    "other_offices": [],
    "colour": "",
    "area": "eastern-victoria-strc",
    "location": { "lat": -37.73752750000001, "lng": 145.01916430000006 },
    "info": ""
  },
  {
    "name": "Andrew Kerr Care AgeWell Centre",
    "link": "https://www.unitingagewell.org/our-services/agewell-services/andrew-kerr-care-agewell-centre",
    "category": "social-connections,community-services",
    "address": "67-69 Tanti AvenueMornington VIC 3931",
    "phone": "(03) 7503 7200",
    "bookATour": null,
    "other_offices": [],
    "area": false,
    "location": { "lat": -38.2194992, "lng": 145.0450806 }
  },
  {
    "name": "Bendigo Respite Services",
    "link": "https://www.unitingagewell.org/our-services/agewell-services/bendigo-respite-services",
    "category": "respite-and-carer-support,community-services",
    "address": "Shop 13 / 172 McIvor Highway, Strathdale VIC 3550",
    "phone": "(03) 5454 2100",
    "bookATour": "title=Bendigo Respite Services&type=true",
    "other_offices": [],
    "area": false,
    "location": { "lat": -36.7723289, "lng": 144.30585759999997 }
  },
  {
    "name": "Carer Respite Services Melbourne",
    "link": "https://www.unitingagewell.org/our-services/agewell-services/carer-respite-services-melbourne",
    "category": "respite-and-carer-support,community-services",
    "address": "9 Jolimont Road, Forest Hill, VIC 3131",
    "phone": "(03) 8845 1800",
    "bookATour": null,
    "other_offices": [],
    "area": false,
    "location": { "lat": -37.8424582, "lng": 145.1730314 }
  },
  {
    "name": "Chadstone St Mark\u2019s Centre",
    "link": "https://www.unitingagewell.org/our-services/agewell-services/st-marks-social-support-centre",
    "category": "social-connections",
    "address": "7 Edward Street\nChadstone VIC 3148",
    "phone": "(03)7503 7200",
    "bookATour": null,
    "other_offices": [],
    "area": false,
    "location": { "lat": -37.8755649, "lng": 145.1067001 }
  },
  {
    "name": "East Burwood Centre",
    "link": "https://www.unitingagewell.org/our-services/agewell-services/east-burwood-social-support-service",
    "category": "social-connections",
    "address": "220 Burwood Highway\nBurwood East VIC 3151",
    "phone": "(03)7503 7200",
    "bookATour": null,
    "other_offices": [],
    "area": false,
    "location": { "lat": -37.85300420000001, "lng": 145.1525492 }
  },
  {
    "name": "Forest Hill AgeWell Centre",
    "link": "https://www.unitingagewell.org/our-services/agewell-services/forest-hill-agewell-centre",
    "category": "social-connections,community-services",
    "address": "9 Jolimont Road,Forest Hill VIC 3131",
    "phone": "(03) 7503 7200",
    "bookATour": "title=Forest Hill AgeWell Centre&type=true",
    "other_offices": [],
    "area": false,
    "location": { "lat": -37.8424469, "lng": 145.1730402 }
  },
  {
    "name": "Geelong AgeWell Centre",
    "link": "https://www.unitingagewell.org/our-services/agewell-services/geelong-agewell-centre",
    "category": "social-connections,community-services",
    "address": "176-180 Francis Street, Belmont VIC 3216",
    "phone": "(03) 7503 7200",
    "bookATour": "title=Geelong AgeWell Centre&type=true",
    "other_offices": [],
    "area": false,
    "location": { "lat": -38.1858373, "lng": 144.34676149999996 }
  },
  {
    "name": "Grampians Community Hub",
    "link": "https://www.unitingagewell.org/our-services/agewell-services/grampians-community-hub",
    "category": "social-connections",
    "address": "19 Albert St,\nBallarat VIC 3350",
    "phone": "(03) 5326 0700",
    "bookATour": null,
    "other_offices": [],
    "colour": "",
    "area": "ballarat-ararat-pyrenees",
    "location": { "lat": -37.5632644, "lng": 143.8593566 },
    "info": ""
  },
  {
    "name": "Grampians Community Transport",
    "link": "https://www.unitingagewell.org/our-services/agewell-services/grampians-community-transport",
    "category": "home-care,social-connections",
    "address": "42A Dyte Parade,\nBallarat VIC 3350",
    "phone": "(03) 5326 0701",
    "bookATour": null,
    "other_offices": [],
    "colour": "",
    "area": "ballarat-ararat-pyrenees",
    "location": { "lat": -37.5593492, "lng": 143.877331 },
    "info": ""
  },
  {
    "name": "Hawthorn AgeWell Centre",
    "link": "https://www.unitingagewell.org/our-services/agewell-services/hawthorn-agewell-centre",
    "category": "allied-health-and-therapy-programs,social-connections,community-services",
    "address": "93-95 Elgin Street, Hawthorn VIC 3122",
    "phone": "(03) 7503 7200",
    "bookATour": "title=Hawthorn AgeWell Centre&type=true",
    "other_offices": [],
    "area": false,
    "location": { "lat": -37.8193553, "lng": 145.02566780000006 }
  },
  {
    "name": "Hobart AgeWell Centre",
    "link": "https://www.unitingagewell.org/our-services/agewell-services/hobart-agewell-centre",
    "category": "social-connections,respite-and-carer-support,community-services",
    "address": "283 Cambridge Road, Mornington TAS 7018",
    "phone": "(03)7503 7200",
    "bookATour": "title=Hobart AgeWell Centre&type=true",
    "other_offices": [],
    "area": false,
    "location": { "lat": -42.85816, "lng": 147.39050129999998 }
  },
  {
    "name": "Ivanhoe Linlithgow Centre",
    "link": "https://www.unitingagewell.org/our-services/agewell-services/linlithgow-social-support-centre",
    "category": "social-connections",
    "address": "19 Seddon Street Ivanhoe VIC 3079",
    "phone": "(03)7503 7200",
    "bookATour": null,
    "other_offices": [],
    "area": false,
    "location": { "lat": -37.7688722, "lng": 145.0432839 }
  },
  {
    "name": "Kingsville AgeWell Centre",
    "link": "https://www.unitingagewell.org/our-services/agewell-services/kingsville-agewell-centre",
    "category": "social-connections,community-services",
    "address": "319 Geelong Road, Kingsville VIC 3012",
    "phone": "(03) 7503 7200",
    "bookATour": "title=Kingsville AgeWell Centre&type=true",
    "other_offices": [],
    "area": false,
    "location": { "lat": -37.807991, "lng": 144.87724200000002 }
  },
  {
    "name": "Latrobe AgeWell Centre",
    "link": "https://www.unitingagewell.org/our-services/agewell-services/latrobe-agewell-centre",
    "category": "social-connections,respite-and-carer-support,community-services",
    "address": "8 Hamilton Street, Latrobe TAS 7307",
    "phone": "(03)7503 7200",
    "bookATour": "title=Latrobe AgeWell Centre&type=true",
    "other_offices": [],
    "area": false,
    "location": { "lat": -41.23623859999999, "lng": 146.41199789999996 }
  },
  {
    "name": "Launceston AgeWell Centre",
    "link": "https://www.unitingagewell.org/our-services/agewell-services/launceston-agewell-centre",
    "category": "social-connections,respite-and-carer-support,community-services",
    "address": "11 Normanstone Rd, \nSouth Launceston, TAS, 7249",
    "phone": "(03)7503 7200",
    "bookATour": "title=Launceston AgeWell Centre&type=true",
    "other_offices": [],
    "area": false,
    "location": { "lat": -41.4600774, "lng": 147.1536331 }
  },
  {
    "name": "Noble Park AgeWell Centre",
    "link": "https://www.unitingagewell.org/our-services/agewell-services/noble-park-agewell-centre",
    "category": "social-connections",
    "address": "1312 Heatherton Road, Noble Park VIC 3174",
    "phone": "(03) 7503 7200",
    "bookATour": "title=Noble Park AgeWell Centre&type=true",
    "other_offices": [],
    "area": false,
    "location": { "lat": -37.968112, "lng": 145.19032200000004 }
  },
  {
    "name": "Northcote AgeWell Centre",
    "link": "https://www.unitingagewell.org/our-services/agewell-services/northcote-agewell-centre",
    "category": "allied-health-and-therapy-programs,community-services",
    "address": "9 Langwells Parade,Northcote VIC 3070",
    "phone": "(03) 7503 7200",
    "bookATour": "title=Northcote AgeWell Centre&type=true",
    "other_offices": [],
    "area": false,
    "location": { "lat": -37.76723550000001, "lng": 145.00021300000003 }
  },
  {
    "name": "Seven Hills Respite House",
    "link": "https://www.unitingagewell.org/our-services/agewell-services/seven-hills-respite-house",
    "category": "respite-and-carer-support,community-services",
    "address": "25 Dundas Street, White Hills VIC 3550",
    "phone": "(03) 5454 2100",
    "bookATour": "title=Seven Hills Respite House&type=true",
    "other_offices": [],
    "area": false,
    "location": { "lat": -36.7296278, "lng": 144.30754679999995 }
  },
  {
    "name": "Toorak John Macrae Centre",
    "link": "https://www.unitingagewell.org/our-services/agewell-services/john-macrae-social-support-centre",
    "category": "social-connections",
    "address": "603 Toorak Road \nToorak VIC 3142",
    "phone": "(03)7503 7200",
    "bookATour": null,
    "other_offices": [],
    "area": false,
    "location": { "lat": -37.841969, "lng": 145.019677 }
  }
]
